City_ID,City,Lat,Lng,Max Temp,Humidity,Cloudiness,Wind Speed,Country,Date
0,itoman,26.1247,127.6694,27.43,55,40,5.66,JP,1970-01-01
1,papatowai,-46.5619,169.4708,14.37,60,6,5.42,NZ,1970-01-01
2,port-aux-francais,-49.35,70.2167,1.86,63,66,11.9,TF,1970-01-01
3,adamstown,-25.066,-130.1015,22.65,81,100,4.23,PN,1970-01-01
4,siwa oasis,29.2041,25.5195,21.27,75,0,2.87,EG,1970-01-01
5,hawaiian paradise park,19.5933,-154.9731,26.73,82,100,2.57,US,1970-01-01
6,mount pearl,47.5166,-52.7813,4.52,66,10,4.02,CA,1970-01-01
7,poltavka,54.3663,71.7632,-1.91,94,100,7.11,RU,1970-01-01
8,vorgashor,67.5833,63.95,-18.86,99,37,1.92,RU,1970-01-01
9,mukalla,14.5425,49.1242,25.18,74,20,2.95,YE,1970-01-01
10,scone,56.4194,-3.4051,8.31,91,100,2.68,GB,1970-01-01
11,blackmans bay,-43.0167,147.3167,18.07,50,90,0.89,AU,1970-01-01
12,uturoa,-16.7333,-151.4333,26.56,78,8,6.36,PF,1970-01-01
13,aasiaat,68.7098,-52.8699,-4.26,79,100,4.31,GL,1970-01-01
14,yellowknife,62.456,-114.3525,-8.66,98,19,1.79,CA,1970-01-01
15,springs,-26.25,28.4,5.93,97,100,6.64,ZA,1970-01-01
16,puerto natales,-51.7236,-72.4875,1.87,89,94,1.32,CL,1970-01-01
17,zhangjiakou shi xuanhua qu,40.6103,115.0447,15.4,26,9,0.36,CN,1970-01-01
18,mitu,1.1983,-70.1733,22.25,98,91,0.86,CO,1970-01-01
19,olonkinbyen,70.9221,-8.7187,0.32,69,100,2.04,SJ,1970-01-01
20,waitangi,-43.9535,-176.5597,12.68,79,43,2.68,NZ,1970-01-01
21,west island,-12.1568,96.8225,27.99,74,100,7.72,CC,1970-01-01
22,holualoa,19.6228,-155.9522,27.91,59,20,4.63,US,1970-01-01
23,atafu village,-8.5421,-172.5159,29.11,69,83,6.03,TK,1970-01-01
24,grytviken,-54.2811,-36.5092,3.62,98,100,4.19,GS,1970-01-01
25,hermanus,-34.4187,19.2345,12.2,65,0,8.73,ZA,1970-01-01
26,tiksi,71.6872,128.8694,-15.54,95,99,3.18,RU,1970-01-01
27,bredasdorp,-34.5322,20.0403,12.52,57,0,7.79,ZA,1970-01-01
28,cestos city,5.46,-9.5828,26.12,81,3,1.59,LR,1970-01-01
29,lihue,21.9789,-159.3672,26.58,78,100,4.63,US,1970-01-01
30,carnarvon,-24.8667,113.6333,23.19,56,0,9.33,AU,1970-01-01
31,whitehorse,60.7161,-135.0538,-1.1,86,100,7.72,CA,1970-01-01
32,jamestown,42.097,-79.2353,8.9,97,100,2.06,US,1970-01-01
33,thompson,55.7435,-97.8558,-4.91,93,100,1.54,CA,1970-01-01
34,albany,42.6001,-73.9662,6.88,93,100,1.04,US,1970-01-01
35,petropavlovka,50.6114,105.3196,-1.94,40,100,0.78,RU,1970-01-01
36,ust-tsilma,65.441,52.1498,-5.77,79,100,4.02,RU,1970-01-01
37,bikenibeu village,1.3673,173.1241,31.98,62,20,2.06,KI,1970-01-01
38,bansang,13.4333,-14.65,24.97,89,65,2.88,GM,1970-01-01
39,trondheim,63.4305,10.3951,-2.95,75,87,2.5,NO,1970-01-01
40,iskateley,67.6803,53.1512,-8.88,86,100,5.81,RU,1970-01-01
41,ilha de mocambique,-15.0342,40.7358,25.48,83,2,0.22,MZ,1970-01-01
42,labrador city,52.9463,-66.9114,-4.05,86,75,3.6,CA,1970-01-01
43,akureyri,65.6835,-18.0878,-1.98,82,35,2.18,IS,1970-01-01
44,ishigaki,24.3448,124.1572,25.67,64,87,6.06,JP,1970-01-01
45,guiuan,11.0333,125.7247,28.8,74,61,4.48,PH,1970-01-01
46,invercargill,-46.4,168.35,17.79,54,4,2.68,NZ,1970-01-01
47,talnakh,69.4865,88.3972,-19.33,94,34,2.08,RU,1970-01-01
48,bontang,0.1333,117.5,29.24,67,14,2.23,ID,1970-01-01
49,bethel,41.3712,-73.414,9.75,89,100,1.54,US,1970-01-01
50,puerto ayora,-0.7393,-90.3518,24.19,90,100,1.34,EC,1970-01-01
51,iqaluit,63.7506,-68.5145,-12.01,91,25,6.68,CA,1970-01-01
52,broken hill,-31.95,141.4333,27.86,16,85,6.56,AU,1970-01-01
53,renigunta,13.65,79.5167,26.99,89,20,0.0,IN,1970-01-01
54,rodino,52.5,80.25,0.45,93,100,3.49,RU,1970-01-01
55,hasaki,35.7333,140.8333,22.94,58,0,7.65,JP,1970-01-01
56,edinburgh of the seven seas,-37.0676,-12.3116,10.59,67,59,12.23,SH,1970-01-01
57,baissa,7.2333,10.6333,24.61,78,98,0.36,NG,1970-01-01
58,lazaro cardenas,17.9583,-102.2,26.71,83,67,2.12,MX,1970-01-01
59,wakkanai,45.4094,141.6739,11.16,78,1,2.68,JP,1970-01-01
60,hithadhoo,-0.6,73.0833,27.16,79,29,7.22,MV,1970-01-01
61,qaqortoq,60.7167,-46.0333,4.14,76,100,6.06,GL,1970-01-01
62,odienne,9.51,-7.5692,22.22,75,0,1.57,CI,1970-01-01
63,bardai,11.65,7.2333,23.46,23,86,3.86,NG,1970-01-01
64,ladario,-19.0047,-57.6017,28.27,54,33,1.55,BR,1970-01-01
65,gadzhiyevo,69.2551,33.3362,-6.8,94,100,3.67,RU,1970-01-01
66,enewetak,11.3474,162.3373,28.91,71,90,9.24,MH,1970-01-01
67,stanley,54.868,-1.6985,7.06,96,75,3.09,GB,1970-01-01
68,kone,-21.0595,164.8658,25.37,45,2,4.92,NC,1970-01-01
69,port elizabeth,-33.918,25.5701,14.35,67,57,6.18,ZA,1970-01-01
70,jalor,25.35,72.6167,28.15,28,0,0.49,IN,1970-01-01
71,margaret river,-33.95,115.0667,15.63,53,99,4.37,AU,1970-01-01
72,san rafael del sur,11.8485,-86.4384,23.38,94,100,1.41,NI,1970-01-01
73,haiku-pauwela,20.9219,-156.3051,26.13,70,40,6.69,US,1970-01-01
74,howrah,22.5892,88.3103,27.0,69,3,2.06,IN,1970-01-01
75,tchintabaraden,15.8969,5.7985,26.22,13,6,4.07,NE,1970-01-01
76,laojunmiao,39.8333,97.7333,13.13,18,93,2.42,CN,1970-01-01
77,nova sintra,14.8667,-24.7167,22.83,68,90,2.7,CV,1970-01-01
78,muroto-misakicho,33.2833,134.15,18.47,51,0,0.74,JP,1970-01-01
79,vazante,-17.9869,-46.9078,28.13,50,99,0.97,BR,1970-01-01
80,mersa matruh,31.3525,27.2453,22.23,78,4,3.25,EG,1970-01-01
81,tsiombe,-25.3,45.4833,21.31,81,0,2.05,MG,1970-01-01
82,bilibino,68.0546,166.4372,-20.6,88,12,1.86,RU,1970-01-01
83,villa gesell,-37.2639,-56.973,15.59,57,100,7.19,AR,1970-01-01
84,vorkuta,67.5,64.0,-19.46,100,50,1.43,RU,1970-01-01
85,dunedin,-45.8742,170.5036,14.33,72,6,1.79,NZ,1970-01-01
86,egilsstadir,65.2653,-14.3948,1.79,93,99,1.82,IS,1970-01-01
87,ponta delgada,37.7333,-25.6667,15.1,88,20,2.68,PT,1970-01-01
88,vrangel',42.7297,133.0839,12.8,75,100,1.86,RU,1970-01-01
89,petropavlovsk-kamchatsky,53.0452,158.6483,3.03,59,75,3.0,RU,1970-01-01
90,new norfolk,-42.7826,147.0587,18.72,44,68,5.22,AU,1970-01-01
91,touros,-5.1989,-35.4608,24.82,81,20,6.26,BR,1970-01-01
92,isafjordur,66.0755,-23.124,1.11,81,22,1.7,IS,1970-01-01
93,isangel,-19.55,169.2667,26.06,73,40,4.63,VU,1970-01-01
94,luderitz,-26.6481,15.1594,21.06,28,14,2.86,NA,1970-01-01
95,sitka,57.0531,-135.33,6.94,70,75,2.57,US,1970-01-01
96,antsiranana,-12.2787,49.2917,24.83,78,96,7.3,MG,1970-01-01
97,mansoa,12.0733,-15.3189,24.1,95,30,2.25,GW,1970-01-01
98,kavalerovo,44.2661,135.0572,15.78,29,18,0.89,RU,1970-01-01
99,port mathurin,-19.6833,63.4167,24.87,78,12,7.0,MU,1970-01-01
100,obock,12.25,43.0833,21.66,78,80,6.32,DJ,1970-01-01
101,caister-on-sea,52.6481,1.7265,11.1,87,4,7.35,GB,1970-01-01
102,mar del plata,-38.0023,-57.5575,14.97,69,0,3.13,AR,1970-01-01
103,kaiapoi,-43.3783,172.6401,17.53,74,75,10.29,NZ,1970-01-01
104,paracale,14.2804,122.7881,29.48,69,86,5.34,PH,1970-01-01
105,oriximina,-1.7656,-55.8661,29.61,47,73,1.84,BR,1970-01-01
106,ilulissat,69.2167,-51.1,-4.99,80,40,0.51,GL,1970-01-01
107,praia,14.9215,-23.5087,25.3,73,75,2.57,CV,1970-01-01
108,inhambane,-23.865,35.3833,18.99,94,75,6.17,MZ,1970-01-01
109,tazovsky,67.4667,78.7,-16.65,95,27,0.92,RU,1970-01-01
110,mokhsogollokh,61.4681,128.9203,-8.76,80,100,1.04,RU,1970-01-01
111,loa janan,-0.583,117.095,32.53,53,11,1.83,ID,1970-01-01
112,atherton,53.5237,-2.4935,10.16,95,99,1.79,GB,1970-01-01
113,naze,28.3667,129.4833,21.11,68,23,4.07,JP,1970-01-01
114,dudinka,69.4058,86.1778,-19.1,100,67,0.73,RU,1970-01-01
115,lompoc,34.6391,-120.4579,16.62,64,0,3.13,US,1970-01-01
116,castillos,-34.1667,-53.8333,16.15,94,83,1.53,UY,1970-01-01
117,kenai,60.5544,-151.2583,5.61,83,100,8.23,US,1970-01-01
118,nuuk,64.1835,-51.7216,7.34,45,100,10.8,GL,1970-01-01
119,punta alta,-38.8759,-62.0736,9.48,71,100,9.59,AR,1970-01-01
120,alamosa,37.4695,-105.87,-4.01,68,100,2.06,US,1970-01-01
121,jaltenango de la paz,15.9167,-92.7167,16.65,93,100,0.85,MX,1970-01-01
122,ushuaia,-54.8,-68.3,-0.19,80,100,6.69,AR,1970-01-01
123,chifeng,42.2683,118.9636,11.45,25,6,3.22,CN,1970-01-01
124,mogocha,53.7333,119.7667,-4.6,42,74,2.72,RU,1970-01-01
125,badger,64.8,-147.5333,-2.58,87,0,0.0,US,1970-01-01
126,port alfred,-33.5906,26.891,14.68,62,98,7.62,ZA,1970-01-01
127,kisangani,0.5167,25.2,22.45,84,98,1.03,CD,1970-01-01
128,port blair,11.6667,92.75,29.02,79,40,2.57,IN,1970-01-01
129,port lincoln,-34.7333,135.8667,16.53,53,36,9.29,AU,1970-01-01
130,melitopol,46.8422,35.3731,11.39,66,2,2.41,UA,1970-01-01
131,winnemucca,40.973,-117.7357,-3.97,39,0,1.54,US,1970-01-01
132,danielskuil,-28.1887,23.5395,9.23,76,15,7.67,ZA,1970-01-01
133,morondava,-20.2833,44.2833,22.77,75,0,3.82,MG,1970-01-01
134,vadso,70.0744,29.7487,-4.91,86,20,4.63,NO,1970-01-01
135,constitucion,-35.3333,-72.4167,8.69,86,23,1.61,CL,1970-01-01
136,lebu,-37.6167,-73.65,7.38,63,17,1.31,CL,1970-01-01
137,concepcion de la sierra,-27.9831,-55.5203,23.69,84,42,2.03,AR,1970-01-01
138,nemuro,43.3236,145.575,10.11,67,9,2.96,JP,1970-01-01
139,calvinia,-31.4707,19.776,6.45,61,0,10.23,ZA,1970-01-01
140,sinabang,2.4803,96.3801,27.25,78,99,1.34,ID,1970-01-01
141,alice springs,-23.7,133.8833,36.75,5,18,2.57,AU,1970-01-01
142,lluta,-16.0147,-72.0142,9.55,66,37,1.46,PE,1970-01-01
143,tolanaro,-25.0319,46.9987,22.98,87,14,1.48,MG,1970-01-01
144,saipan,15.1355,145.701,31.39,70,20,6.17,MP,1970-01-01
145,duba,27.3513,35.6901,26.11,51,3,1.28,SA,1970-01-01
146,wailua homesteads,22.0669,-159.378,26.24,79,100,4.63,US,1970-01-01
147,marsh harbour,26.5412,-77.0636,25.66,77,95,9.07,BS,1970-01-01
148,sechura,-5.5569,-80.8222,21.01,75,100,7.11,PE,1970-01-01
149,salahonda,2.1019,-78.7217,25.68,90,100,3.43,CO,1970-01-01
150,fort mcmurray,56.7268,-111.381,-3.86,65,0,1.93,CA,1970-01-01
151,tsumeb,-19.2333,17.7167,23.11,24,17,1.96,NA,1970-01-01
152,georgetown,5.4112,100.3354,29.97,74,20,2.06,MY,1970-01-01
153,lamu,-2.2717,40.902,25.81,87,75,3.74,KE,1970-01-01
154,bulawayo,-20.15,28.5833,12.82,91,100,8.08,ZW,1970-01-01
155,magadan,59.5667,150.8,-0.26,72,8,0.46,RU,1970-01-01
156,zarinsk,53.7074,84.9493,-3.45,68,100,1.72,RU,1970-01-01
157,santa elena de uairen,4.6167,-61.1333,22.34,66,44,1.26,VE,1970-01-01
158,novodvinsk,64.4165,40.8122,-4.56,81,59,2.55,RU,1970-01-01
159,mimizan,44.2006,-1.2289,15.26,90,100,5.14,FR,1970-01-01
160,lubang,13.8584,120.124,28.89,71,98,8.45,PH,1970-01-01
161,colonel hill,22.7667,-74.2167,27.91,77,70,7.0,BS,1970-01-01
162,timimoun,29.2639,0.231,25.55,22,83,2.89,DZ,1970-01-01
163,bereeda,11.8704,51.0579,25.94,80,91,2.85,SO,1970-01-01
164,awjilah,29.1081,21.2869,20.39,50,0,3.04,LY,1970-01-01
165,lospalos,-8.5186,127.0025,30.14,49,73,4.88,TL,1970-01-01
166,kavaratti,10.5669,72.642,27.9,71,100,1.36,IN,1970-01-01
167,afaahiti,-17.75,-149.2833,26.7,82,40,8.22,PF,1970-01-01
168,srinivaspur,13.3333,78.2167,21.48,86,93,4.38,IN,1970-01-01
169,dunoon,55.947,-4.923,8.07,90,97,0.89,GB,1970-01-01
170,jamaame,0.0697,42.745,24.9,87,80,2.61,SO,1970-01-01
171,sevastopol,44.6,33.5333,16.03,56,0,2.2,UA,1970-01-01
172,luau,-10.7073,22.2247,19.63,84,82,1.55,AO,1970-01-01
173,akrehamn,59.2667,5.1833,8.01,65,40,5.14,NO,1970-01-01
174,nadi,-17.8,177.4167,33.0,52,40,4.12,FJ,1970-01-01
175,bogorodskoye,56.55,37.8833,-0.92,94,100,1.85,RU,1970-01-01
176,saint-felicien,48.6501,-72.4491,0.16,52,100,0.88,CA,1970-01-01
177,bauchi,10.5,10.0,22.44,31,46,1.61,NG,1970-01-01
178,longyearbyen,78.2186,15.6401,-4.09,86,40,4.12,SJ,1970-01-01
179,san ignacio rio muerto,27.4167,-110.2333,25.18,67,0,5.24,MX,1970-01-01
180,port hueneme,34.1478,-119.1951,21.99,16,0,7.72,US,1970-01-01
181,college,64.8569,-147.8028,-2.53,84,75,0.0,US,1970-01-01
182,markala,13.7021,-6.0659,28.22,45,85,2.22,ML,1970-01-01
183,montelibano,7.9829,-75.4229,24.24,93,99,1.02,CO,1970-01-01
184,champerico,14.3,-91.9167,25.49,86,100,3.69,GT,1970-01-01
185,antonio enes,-16.2325,39.9086,24.39,91,3,0.69,MZ,1970-01-01
186,preobrazheniye,42.9019,133.9064,13.94,64,42,4.56,RU,1970-01-01
187,itaguai,-22.8522,-43.7753,23.68,98,100,3.68,BR,1970-01-01
188,tura,25.5198,90.2201,24.96,73,1,0.35,IN,1970-01-01
189,el nido,11.1858,119.3956,29.76,68,99,3.37,PH,1970-01-01
190,male,4.1748,73.5089,27.02,78,100,3.37,MV,1970-01-01
191,rabaul,-4.1967,152.1721,27.58,77,75,1.62,PG,1970-01-01
192,mangaratiba,-22.9597,-44.0406,23.49,96,100,4.07,BR,1970-01-01
193,zemio,5.0314,25.1361,21.59,91,100,1.31,CF,1970-01-01
194,al ghayzah,16.2079,52.176,25.01,75,75,1.83,YE,1970-01-01
195,general pico,-35.6566,-63.7568,11.99,73,35,6.96,AR,1970-01-01
196,shahrud,36.4182,54.9763,15.01,42,74,2.21,IR,1970-01-01
197,dodge city,37.7528,-100.0171,-1.32,71,73,4.56,US,1970-01-01
198,fortuna,40.5982,-124.1573,12.51,70,0,0.0,US,1970-01-01
199,nantucket,41.2835,-70.0995,11.12,85,100,5.14,US,1970-01-01
200,chibougamau,49.9168,-74.3659,-1.21,80,100,2.06,CA,1970-01-01
201,kingston,17.997,-76.7936,26.25,92,14,0.88,JM,1970-01-01
202,fougamou,-1.2154,10.5838,23.47,99,74,0.8,GA,1970-01-01
203,benguela,-12.5763,13.4055,24.21,86,54,1.81,AO,1970-01-01
204,kolyshley,52.7005,44.5367,1.55,84,100,5.75,RU,1970-01-01
205,katsuura,35.1333,140.3,19.98,50,0,3.17,JP,1970-01-01
206,grand baie,-20.0182,57.5802,24.14,75,12,0.89,MU,1970-01-01
207,ribeira grande,38.5167,-28.7,17.45,63,100,0.1,PT,1970-01-01
208,al aaroui,35.0118,-3.0045,17.14,84,100,1.8,MA,1970-01-01
209,kilindoni,-7.9139,39.6668,26.3,83,93,4.25,TZ,1970-01-01
210,encheng,22.1839,112.3026,27.2,66,91,2.0,CN,1970-01-01
211,keflavik,64.0049,-22.5624,4.24,70,0,2.57,IS,1970-01-01
212,st. john's,47.5649,-52.7093,4.98,66,10,5.81,CA,1970-01-01
213,selfoss,63.9331,-20.9971,-1.64,72,77,2.99,IS,1970-01-01
214,hadibu,12.65,54.0333,26.11,78,98,3.79,YE,1970-01-01
215,chicholi,21.4667,79.6833,21.97,56,85,1.65,IN,1970-01-01
216,taghazout,30.5426,-9.7112,17.43,67,100,1.22,MA,1970-01-01
217,beyneu,45.3167,55.2,12.49,69,100,3.77,KZ,1970-01-01
218,hsinchu,24.8036,120.9686,27.7,72,53,1.79,TW,1970-01-01
219,kerikeri,-35.2268,173.9474,18.28,94,100,0.89,NZ,1970-01-01
220,kokopo,-4.352,152.2633,27.54,79,69,0.45,PG,1970-01-01
221,luganville,-15.5333,167.1667,26.81,75,74,3.81,VU,1970-01-01
222,casper,42.8666,-106.3131,-6.27,75,0,4.12,US,1970-01-01
223,suwannaphum,15.6035,103.8021,27.85,74,86,5.64,TH,1970-01-01
224,picos,-7.0769,-41.4669,24.5,41,81,1.24,BR,1970-01-01
225,villa sandino,12.0483,-84.9936,22.27,97,98,1.46,NI,1970-01-01
226,rudnichnyy,59.617,52.4703,-3.82,94,100,1.62,RU,1970-01-01
227,caluula,11.9661,50.7569,26.5,77,98,4.28,SO,1970-01-01
228,colonia,50.9333,6.95,12.87,81,0,5.14,DE,1970-01-01
229,chonchi,-42.6128,-73.8092,4.56,96,99,2.75,CL,1970-01-01
230,ust-nera,64.5667,143.2,-11.28,93,99,0.45,RU,1970-01-01
231,monett,36.929,-93.9277,1.76,100,100,5.97,US,1970-01-01
232,ola,59.5833,151.2833,0.08,59,6,1.21,RU,1970-01-01
233,weno,7.4515,151.8468,28.23,78,87,4.78,FM,1970-01-01
234,newnham,-41.3833,147.1333,13.81,93,100,6.69,AU,1970-01-01
235,nuku'alofa,-21.1333,-175.2,23.54,89,5,8.14,TO,1970-01-01
236,veinticinco de mayo,-35.4323,-60.1727,14.99,83,49,1.79,AR,1970-01-01
237,lawas,13.764,121.0566,30.55,70,100,3.61,PH,1970-01-01
238,tarko-sale,64.9225,77.785,-13.27,94,13,1.45,RU,1970-01-01
239,kargasok,59.0556,80.8572,-11.13,94,50,1.34,RU,1970-01-01
240,chakulia,22.4833,86.7167,24.81,59,0,1.77,IN,1970-01-01
241,anadyr,64.75,177.4833,-1.72,92,75,11.0,RU,1970-01-01
242,angaur state,6.906,134.13,28.19,76,53,4.3,PW,1970-01-01
243,yuzhno-kurilsk,44.0306,145.8556,7.99,76,5,1.24,RU,1970-01-01
244,port moresby,-9.4431,147.1797,27.67,77,67,7.65,PG,1970-01-01
245,emerald,-23.5333,148.1667,29.63,32,94,2.34,AU,1970-01-01
246,tucumcari,35.1717,-103.725,0.52,51,100,8.23,US,1970-01-01
247,mejit,10.2753,170.8646,28.0,81,100,9.57,MH,1970-01-01
248,llallagua,-18.4167,-66.6333,8.82,18,80,2.63,BO,1970-01-01
249,avarua,-21.2078,-159.775,25.03,65,40,4.12,CK,1970-01-01
250,khandyga,62.6667,135.6,-5.61,94,100,1.96,RU,1970-01-01
251,priyutnoye,46.1011,43.5072,10.7,70,5,2.93,RU,1970-01-01
252,san patricio,28.017,-97.5169,22.92,72,4,9.13,US,1970-01-01
253,jutai,-5.1833,-68.9,23.16,98,100,1.01,BR,1970-01-01
254,cabo san lucas,22.8909,-109.9124,25.9,78,0,2.06,MX,1970-01-01
255,jijel,36.8205,5.7667,22.66,42,67,4.85,DZ,1970-01-01
256,seydi,39.4816,62.9137,18.84,55,13,1.72,TM,1970-01-01
257,lata,40.1629,-8.3327,11.71,91,80,2.57,PT,1970-01-01
258,utrik,11.2278,169.8474,28.08,81,50,8.96,MH,1970-01-01
259,east london,-33.0153,27.9116,13.88,64,68,4.13,ZA,1970-01-01
260,francistown,-21.17,27.5079,15.1,80,100,11.18,BW,1970-01-01
261,kapuskasing,49.4169,-82.4331,-3.75,92,82,0.91,CA,1970-01-01
262,patterson,37.4716,-121.1297,16.55,44,0,1.76,US,1970-01-01
263,ambalangoda,6.2355,80.0538,26.51,79,100,1.96,LK,1970-01-01
264,nyandoma,61.669,40.1991,-9.33,99,78,1.52,RU,1970-01-01
265,brandon,27.9378,-82.2859,24.95,84,0,3.6,US,1970-01-01
266,new plymouth,-39.0667,174.0833,14.06,67,100,6.18,NZ,1970-01-01
267,gaiman,-43.2897,-65.4929,9.09,29,100,9.75,AR,1970-01-01
268,sullivan,36.5168,-82.5332,18.63,83,0,0.0,US,1970-01-01
269,fort bragg,35.139,-79.006,20.85,80,0,3.6,US,1970-01-01
270,sokhumi,43.0033,41.0153,16.63,71,72,2.16,GE,1970-01-01
271,sebring,27.4956,-81.4409,22.16,91,0,1.79,US,1970-01-01
272,la foa,-21.7108,165.8276,23.29,51,2,4.9,NC,1970-01-01
273,aby,58.6667,16.1833,4.61,93,75,6.69,SE,1970-01-01
274,kapit,2.0167,112.9333,28.25,78,99,1.27,MY,1970-01-01
275,bayanhongor,46.7167,100.1167,0.6,70,56,2.6,MN,1970-01-01
276,nurota,40.5614,65.6886,18.35,42,12,2.52,UZ,1970-01-01
277,zhanaozen,43.3,52.8,14.01,56,97,6.36,KZ,1970-01-01
278,ar ruways,24.1103,52.7306,27.92,66,90,4.04,AE,1970-01-01
279,punta arenas,-53.15,-70.9167,3.95,55,76,7.72,CL,1970-01-01
280,el calafate,-50.3408,-72.2768,3.19,66,3,4.08,AR,1970-01-01
281,olinda,-8.0089,-34.8553,25.85,69,40,5.66,BR,1970-01-01
282,juan griego,11.0817,-63.9655,27.74,82,29,4.31,VE,1970-01-01
283,adrar,20.5022,-10.0711,26.38,17,0,3.56,MR,1970-01-01
284,constantia,44.1833,28.65,11.38,71,0,3.28,RO,1970-01-01
285,batabano,22.7164,-82.2881,24.34,81,2,5.89,CU,1970-01-01
286,klyuchi,52.2667,79.1667,0.56,98,100,4.6,RU,1970-01-01
287,felipe carrillo puerto,19.5833,-88.05,22.67,92,0,1.29,MX,1970-01-01
288,rakops,-21.0167,24.3333,20.28,66,51,7.84,BW,1970-01-01
289,pleasanton,37.6624,-121.8747,17.41,35,0,0.0,US,1970-01-01
290,zhytkavichy,52.2168,27.8561,9.05,90,89,4.27,BY,1970-01-01
291,colby,39.3958,-101.0524,-4.82,80,0,4.63,US,1970-01-01
292,zaragoza,41.6561,-0.8773,15.25,75,75,4.63,ES,1970-01-01
293,cartagena,10.3997,-75.5144,25.79,94,20,1.03,CO,1970-01-01
294,bel ombre,-4.6167,55.4167,27.12,77,99,8.01,SC,1970-01-01
295,mysen,59.5535,11.3258,0.23,93,100,5.15,NO,1970-01-01
296,senanga,-16.1167,23.2667,21.44,65,99,2.57,ZM,1970-01-01
297,arkhangel'sk,64.5401,40.5433,-4.37,81,63,2.73,RU,1970-01-01
298,hammerfest,70.6634,23.6821,-2.75,80,75,1.03,NO,1970-01-01
299,zyryanovsk,49.7386,84.2719,1.05,100,100,0.71,KZ,1970-01-01
300,birobidzhan,48.8,132.95,5.46,49,100,1.37,RU,1970-01-01
301,fort st. john,56.2499,-120.8529,-5.28,88,100,0.54,CA,1970-01-01
302,nar'yan-mar,67.6713,53.087,-8.83,86,100,5.81,RU,1970-01-01
303,fale old settlement,-9.3852,-171.2468,28.89,71,96,5.26,TK,1970-01-01
304,pangoa,-12.1167,-73.0,20.7,99,100,0.22,PE,1970-01-01
305,severoural'sk,60.1533,59.952,-7.23,87,100,3.53,RU,1970-01-01
306,kolonia,50.9333,6.95,12.87,81,0,5.14,DE,1970-01-01
307,puerto baquerizo moreno,-0.9,-89.6,23.34,79,100,4.43,EC,1970-01-01
308,kamloops,50.6665,-120.3192,0.32,64,46,1.34,CA,1970-01-01
309,san jose del cabo,23.0589,-109.6977,25.89,81,0,2.57,MX,1970-01-01
310,myeik,12.4333,98.6,29.24,70,73,1.11,MM,1970-01-01
311,acarau,-2.8856,-40.12,26.26,81,93,7.18,BR,1970-01-01
312,modasa,23.4667,73.3,25.39,38,86,3.19,IN,1970-01-01
313,khovd,48.0056,91.6419,4.0,52,100,0.8,MN,1970-01-01
314,silsbee,30.3491,-94.178,24.86,84,91,3.82,US,1970-01-01
315,worland,44.0169,-107.9554,-5.18,86,0,3.09,US,1970-01-01
316,dukhan,25.4297,50.7858,25.67,61,82,2.69,QA,1970-01-01
317,hami,42.8,93.45,13.83,31,39,1.45,CN,1970-01-01
318,castelleone,45.2939,9.7617,15.78,94,100,2.16,IT,1970-01-01
319,praia da vitoria,38.7333,-27.0667,13.75,86,100,1.59,PT,1970-01-01
320,bengkulu,-3.8004,102.2655,27.36,69,96,2.79,ID,1970-01-01
321,tangalle,6.024,80.7911,26.09,74,83,1.43,LK,1970-01-01
322,basoko,1.2391,23.616,22.94,84,100,1.0,CD,1970-01-01
323,cacu,-18.5567,-51.1308,26.81,60,61,1.23,BR,1970-01-01
324,klaksvik,62.2266,-6.589,3.51,69,100,9.49,FO,1970-01-01
325,rocha,-34.4833,-54.3333,16.58,90,100,1.05,UY,1970-01-01
326,porto velho,-8.7619,-63.9039,25.03,88,75,1.54,BR,1970-01-01
327,yanchep,-31.55,115.6833,22.23,41,5,4.2,AU,1970-01-01
328,bubaque,11.2833,-15.8333,28.19,73,78,3.46,GW,1970-01-01
329,port macquarie,-31.4333,152.9167,26.61,52,0,7.08,AU,1970-01-01
330,port saint john's,-31.6229,29.5448,14.3,63,98,1.16,ZA,1970-01-01
331,island harbour,50.724,-1.2758,14.4,82,8,2.24,GB,1970-01-01
332,kodiak,57.79,-152.4072,7.73,100,100,4.12,US,1970-01-01
333,cardenas,23.0375,-81.2047,23.42,86,21,4.05,CU,1970-01-01
334,flying fish cove,-10.4217,105.6791,27.82,78,100,4.63,CX,1970-01-01
335,bishkek,42.87,74.59,13.11,35,100,1.95,KG,1970-01-01
336,sisimiut,66.9395,-53.6735,-2.47,75,100,4.22,GL,1970-01-01
337,sinanpasa,38.7444,30.2428,12.46,77,100,1.01,TR,1970-01-01
338,popondetta,-8.7537,148.2534,23.8,97,100,0.78,PG,1970-01-01
339,sandnessjoen,66.0217,12.6316,-3.71,73,24,3.72,NO,1970-01-01
340,ancud,-41.8697,-73.8203,6.99,85,100,8.91,CL,1970-01-01
341,strugi-krasnyye,58.2675,29.1114,-1.21,95,100,4.2,RU,1970-01-01
342,el tigre,8.8875,-64.2454,26.35,76,63,2.57,VE,1970-01-01
343,hermiston,45.8404,-119.2895,3.55,67,0,1.54,US,1970-01-01
344,al matlin,37.2452,10.05,24.77,72,54,7.92,TN,1970-01-01
345,shahin dezh,36.6793,46.5669,12.21,50,99,0.69,IR,1970-01-01
346,pauini,-7.7136,-66.9764,23.33,97,100,1.9,BR,1970-01-01
347,tindouf,27.6711,-8.1474,21.6,34,100,2.87,DZ,1970-01-01
348,rio grande,-32.035,-52.0986,20.53,94,0,2.81,BR,1970-01-01
349,tosontsengel,48.7567,98.2839,-1.45,84,98,2.16,MN,1970-01-01
350,baillif,16.0202,-61.7463,25.72,84,100,6.08,GP,1970-01-01
351,st. paul,44.9444,-93.0933,-0.4,68,0,6.17,US,1970-01-01
352,burao,9.5221,45.5336,20.56,76,100,3.2,SO,1970-01-01
353,polyarnyy,69.1989,33.4478,-6.42,94,100,3.64,RU,1970-01-01
354,laguna,38.421,-121.4238,15.73,43,0,2.06,US,1970-01-01
355,san luis de la loma,17.2706,-100.8939,26.24,86,48,2.04,MX,1970-01-01
356,fisterra,42.9049,-9.2629,12.79,60,61,9.96,ES,1970-01-01
357,dzhangala,49.2167,50.3333,7.46,68,93,7.58,KZ,1970-01-01
358,cockburn town,21.4612,-71.1419,28.27,81,22,4.6,TC,1970-01-01
359,remire-montjoly,4.9167,-52.2667,25.02,94,20,0.0,GF,1970-01-01
360,ulladulla,-35.35,150.4667,32.09,29,100,3.16,AU,1970-01-01
361,pandan,14.0453,124.1694,28.9,77,71,5.6,PH,1970-01-01
362,margate,51.3813,1.3862,13.83,86,2,0.45,GB,1970-01-01
363,midvagur,62.0511,-7.1939,3.46,75,20,2.57,FO,1970-01-01
364,tremonton,41.7119,-112.1655,1.34,46,0,2.68,US,1970-01-01
365,shitanjing,39.2342,106.3439,16.73,18,10,5.05,CN,1970-01-01
366,misratah,32.3754,15.0925,23.31,71,81,4.63,LY,1970-01-01
367,sao jose dos pinhais,-25.5347,-49.2064,20.14,96,75,2.57,BR,1970-01-01
368,karratha,-20.7377,116.8463,35.96,21,82,3.15,AU,1970-01-01
369,dakhla,23.6848,-15.958,20.35,90,2,4.65,EH,1970-01-01
370,esperantinopolis,-4.8667,-44.7083,26.64,58,9,2.63,BR,1970-01-01
371,hilo,19.7297,-155.09,26.85,80,100,2.57,US,1970-01-01
372,mahibadhoo,3.7833,72.9667,27.97,74,100,4.48,MV,1970-01-01
373,belmonte,-15.8631,-38.8828,23.81,74,63,3.84,BR,1970-01-01
374,chamical,-30.36,-66.314,27.17,18,8,2.37,AR,1970-01-01
375,aweil,8.7682,27.4002,23.66,77,82,1.8,SS,1970-01-01
376,igrim,63.1906,64.4162,-9.61,83,100,2.77,RU,1970-01-01
377,aktau,43.65,51.2,12.32,58,100,5.07,KZ,1970-01-01
378,hirara,24.8,125.2833,25.31,60,52,5.98,JP,1970-01-01
379,arraial do cabo,-22.9661,-42.0278,23.16,98,100,4.67,BR,1970-01-01
380,mazagao,-0.115,-51.2894,28.03,82,5,2.24,BR,1970-01-01
381,bokoro,12.3807,17.0568,29.65,20,85,2.49,TD,1970-01-01
382,luena,-11.7833,19.9167,17.08,86,78,1.45,AO,1970-01-01
383,belo sur tsiribihina,-19.7,44.55,23.04,69,3,1.98,MG,1970-01-01
384,gobabis,-22.45,18.9667,16.89,19,0,6.05,NA,1970-01-01
385,nguigmi,14.2495,13.1092,27.67,23,0,5.39,NE,1970-01-01
386,nadvoitsy,63.8667,34.3167,-6.16,87,56,2.71,RU,1970-01-01
387,xilin hot,43.9667,116.0333,5.94,34,100,3.29,CN,1970-01-01
388,nogliki,51.8333,143.1667,2.97,60,1,3.58,RU,1970-01-01
389,udachny,66.4167,112.4,-20.31,76,95,3.37,RU,1970-01-01
390,bocana de paiwas,12.7857,-85.1227,22.99,96,100,0.46,NI,1970-01-01
391,isiro,2.7739,27.616,20.0,99,99,1.06,CD,1970-01-01
392,leninskoye,41.7589,69.3864,17.43,40,16,1.73,KZ,1970-01-01
393,gorontalo,0.5412,123.0595,32.87,53,96,3.51,ID,1970-01-01
394,nowy dwor gdanski,54.2131,19.1177,13.37,77,100,7.72,PL,1970-01-01
395,salekhard,66.53,66.6019,-15.55,99,79,1.26,RU,1970-01-01
396,howard springs,-12.497,131.047,34.9,60,73,3.4,AU,1970-01-01
397,aripuana,-9.1667,-60.6333,29.49,39,69,1.12,BR,1970-01-01
398,barra de santo antonio,-9.4047,-35.5072,22.6,76,92,4.03,BR,1970-01-01
399,taraz,42.9,71.3667,15.23,47,40,5.0,KZ,1970-01-01
400,malango,-2.9627,119.9001,30.57,43,10,2.09,ID,1970-01-01
401,farakka,24.8167,87.9,25.84,62,0,1.99,IN,1970-01-01
402,ossining,41.1629,-73.8615,11.37,89,100,2.57,US,1970-01-01
403,tromso,69.6496,18.957,-2.99,80,75,1.03,NO,1970-01-01
404,northam,51.0333,-4.2167,12.03,96,90,7.19,GB,1970-01-01
405,fu'an,27.0892,119.6453,25.41,51,0,0.33,CN,1970-01-01
406,kuchinda,21.7333,84.35,23.91,60,0,0.93,IN,1970-01-01
407,virac,13.6333,124.2167,25.3,75,92,4.97,PH,1970-01-01
408,hermansverk,61.1846,6.8502,0.25,59,2,4.63,NO,1970-01-01
409,burang,30.25,81.1667,1.94,49,3,1.32,CN,1970-01-01
410,boende,-0.2167,20.8667,23.44,82,99,0.74,CD,1970-01-01
411,wongsorejo,-7.9908,114.4009,32.44,50,34,1.73,ID,1970-01-01
412,hechuan,29.9947,106.2572,21.64,63,6,0.78,CN,1970-01-01
413,antofagasta,-23.65,-70.4,17.39,77,39,3.71,CL,1970-01-01
414,marsa alam,25.0757,34.8918,25.08,82,0,1.57,EG,1970-01-01
415,crane,31.3974,-102.3501,3.21,74,100,8.93,US,1970-01-01
416,loreto,22.2667,-101.9667,19.55,51,11,4.53,MX,1970-01-01
417,queenstown,-31.8976,26.8753,3.77,83,30,4.27,ZA,1970-01-01
418,goderich,43.7501,-81.7165,6.62,87,100,4.67,CA,1970-01-01
419,juneau,58.3019,-134.4197,4.0,90,100,5.66,US,1970-01-01
420,guixi,28.2886,117.2133,23.81,64,0,1.02,CN,1970-01-01
421,la'ie,21.6477,-157.9253,28.98,72,21,1.79,US,1970-01-01
422,hollymead,38.1171,-78.4417,22.07,84,71,1.38,US,1970-01-01
423,cannonvale,-20.2833,148.7,25.66,51,21,5.33,AU,1970-01-01
424,flin flon,54.7682,-101.865,-3.49,87,100,3.77,CA,1970-01-01
425,the pas,53.8251,-101.2541,-1.99,93,100,6.69,CA,1970-01-01
426,san blas,21.5167,-105.2667,25.46,84,52,2.07,MX,1970-01-01
427,harstad,68.799,16.5293,-1.03,94,100,1.79,NO,1970-01-01
428,mount gambier,-37.8333,140.7667,15.41,46,68,7.12,AU,1970-01-01
429,arkalyk,50.2486,66.9114,7.92,94,53,9.9,KZ,1970-01-01
430,maridi,4.9158,29.4742,20.48,94,96,1.36,SS,1970-01-01
431,el granada,37.5027,-122.4694,17.9,38,0,5.66,US,1970-01-01
432,hedaru,-4.5,37.9,21.23,88,90,1.8,TZ,1970-01-01
433,kuqa,41.7278,82.9364,15.66,30,68,1.16,CN,1970-01-01
434,acapulco de juarez,16.8634,-99.8901,27.03,84,59,2.54,MX,1970-01-01
435,kamaishi,39.2667,141.8833,16.16,65,59,3.21,JP,1970-01-01
436,kruisfontein,-34.0033,24.7314,8.59,83,11,1.91,ZA,1970-01-01
437,port hedland,-20.3167,118.5667,31.03,70,40,6.17,AU,1970-01-01
438,amarante do maranhao,-5.5667,-46.7422,26.79,41,9,0.9,BR,1970-01-01
439,neiafu,-18.65,-173.9833,27.38,83,75,5.66,TO,1970-01-01
440,levuka,50.1834,-105.4011,-8.21,94,16,4.5,CA,1970-01-01
441,loango,-4.6719,11.8312,25.81,94,75,5.66,CG,1970-01-01
442,nabire,-3.3667,135.4833,30.24,66,57,2.27,ID,1970-01-01
443,kuching,1.55,110.3333,30.12,74,20,1.03,MY,1970-01-01
444,gbarnga,6.9956,-9.4722,21.27,93,29,0.36,LR,1970-01-01
445,fukumitsu,36.55,136.8667,18.94,84,79,0.45,JP,1970-01-01
446,sydney,-33.8679,151.2073,35.9,27,0,9.26,AU,1970-01-01
447,calatayud,41.3535,-1.6432,14.56,72,100,9.68,ES,1970-01-01
448,severo-yeniseyskiy,60.3725,93.0408,-15.79,99,83,0.89,RU,1970-01-01
449,okhotsk,59.3833,143.3,-1.74,73,19,2.85,RU,1970-01-01
450,bella vista,36.4295,-94.2316,3.04,94,100,10.29,US,1970-01-01
451,sampit,-2.5333,112.95,34.94,40,6,1.49,ID,1970-01-01
452,balakhta,55.38,91.6,-5.96,68,4,0.59,RU,1970-01-01
453,probolinggo,-7.7543,113.2159,32.79,45,32,3.5,ID,1970-01-01
454,uige,-7.6087,15.0613,20.21,98,99,1.12,AO,1970-01-01
455,pangody,65.85,74.4859,-15.02,96,14,1.51,RU,1970-01-01
456,kabwe,-14.4469,28.4464,20.84,71,100,1.61,ZM,1970-01-01
457,ta`u,-14.2336,-169.5144,27.31,79,75,7.25,AS,1970-01-01
458,gewane,10.1664,40.6453,25.35,64,93,1.04,ET,1970-01-01
459,moquegua,-17.1956,-70.9353,17.13,58,27,0.57,PE,1970-01-01
460,tougan,13.0667,-3.0667,27.55,29,0,0.4,BF,1970-01-01
461,rolla,37.9514,-91.7713,2.3,92,100,5.66,US,1970-01-01
462,walvis bay,-22.9575,14.5053,13.5,88,0,2.1,NA,1970-01-01
463,belgrade,44.804,20.4651,14.12,71,0,2.06,RS,1970-01-01
464,priozersk,61.0393,30.1291,0.06,76,83,2.49,RU,1970-01-01
465,mbala,-8.8402,31.3659,18.38,68,89,1.56,ZM,1970-01-01
466,berezovyy,51.6667,135.7,3.73,55,100,1.49,RU,1970-01-01
467,maroua,10.591,14.3159,26.78,55,14,2.07,CM,1970-01-01
468,akjoujt,19.6969,-14.4164,25.62,34,0,3.74,MR,1970-01-01
469,tongchuanshi,35.0806,109.0897,19.87,40,1,1.91,CN,1970-01-01
470,nizhnesortymskiy,62.4397,71.7603,-11.39,95,48,2.86,RU,1970-01-01
471,urucurituba,-2.6833,-57.6667,30.07,41,75,1.23,BR,1970-01-01
472,puerto madero,14.7208,-92.4215,25.11,100,75,0.0,MX,1970-01-01
473,jumla,29.2747,82.1838,13.78,47,0,1.07,NP,1970-01-01
474,alofi,-19.0595,-169.9187,23.97,84,5,10.25,NU,1970-01-01
475,kidal,18.4411,1.4078,26.43,11,24,4.13,ML,1970-01-01
476,chistopol',55.3631,50.6424,-0.63,94,100,7.25,RU,1970-01-01
477,coahuayana de hidalgo,18.7,-103.6583,25.92,91,66,1.21,MX,1970-01-01
478,susuman,62.7833,148.1667,-13.34,92,83,0.89,RU,1970-01-01
479,pimenta bueno,-11.6725,-61.1936,28.16,52,79,0.5,BR,1970-01-01
480,atbasar,51.8,68.3333,7.34,94,100,5.87,KZ,1970-01-01
481,zalingei,12.9096,23.4741,23.86,26,18,1.6,SD,1970-01-01
482,punta del este,-34.9667,-54.95,17.06,91,75,5.66,UY,1970-01-01
483,kodinsk,58.6881,99.1844,-9.76,65,29,1.46,RU,1970-01-01
484,sao joao da barra,-21.6403,-41.0511,23.23,89,96,6.05,BR,1970-01-01
485,prince albert,53.2001,-105.7677,-6.36,90,97,3.0,CA,1970-01-01
486,cozumel,20.5083,-86.9458,24.41,90,0,4.45,MX,1970-01-01
487,waingapu,-9.6567,120.2641,31.31,56,51,4.97,ID,1970-01-01
488,miquelon,47.0975,-56.3814,6.0,54,78,13.73,PM,1970-01-01
489,yarmouth,41.7057,-70.2286,9.98,95,100,4.12,US,1970-01-01
490,drobak,59.6633,10.6298,-0.12,85,100,4.99,NO,1970-01-01
491,governador valadares,-18.8511,-41.9494,24.36,65,80,2.1,BR,1970-01-01
492,yayva,59.3303,57.2641,-3.79,69,100,3.77,RU,1970-01-01
493,chongoyape,-6.6406,-79.3892,23.24,69,99,1.02,PE,1970-01-01
494,weihai,37.5017,122.1136,22.26,55,6,3.53,CN,1970-01-01
495,medina del campo,41.3124,-4.9141,12.66,85,100,6.87,ES,1970-01-01
496,salalah,17.0151,54.0924,24.75,76,70,1.08,OM,1970-01-01
497,huilong,31.8111,121.655,22.74,58,0,4.39,CN,1970-01-01
498,springhill,33.006,-93.4668,13.35,89,100,4.39,US,1970-01-01
499,sakata,38.9167,139.855,16.42,71,73,2.35,JP,1970-01-01
500,kyabram,-36.3167,145.05,21.6,27,99,8.51,AU,1970-01-01
501,novoul'yanovsk,54.1496,48.3891,0.75,97,100,4.92,RU,1970-01-01
502,pekalongan,-6.8886,109.6753,31.29,54,65,2.03,ID,1970-01-01
503,port pirie,-33.1833,138.0167,23.26,32,11,4.58,AU,1970-01-01
504,bosaso,11.2842,49.1816,26.87,76,89,1.91,SO,1970-01-01
505,qui nhon,13.7667,109.2333,28.03,78,98,5.32,VN,1970-01-01
506,soto la marina,23.7667,-98.2167,22.0,87,19,2.19,MX,1970-01-01
507,berbera,10.4396,45.0143,27.52,73,90,1.91,SO,1970-01-01
508,port douglas,-16.4833,145.4667,25.73,60,98,5.01,AU,1970-01-01
509,oebisfelde,52.4333,10.9833,12.99,72,100,6.93,DE,1970-01-01
510,villaviciosa,43.4813,-5.4357,13.98,99,97,2.18,ES,1970-01-01
511,cox's bazar,21.4532,91.9798,25.41,68,54,3.26,BD,1970-01-01
512,komadi,47.0,21.5,17.31,62,50,5.39,HU,1970-01-01
513,lepsy,46.235,78.9456,12.79,79,100,2.72,KZ,1970-01-01
514,bridgewater,44.3835,-64.5155,6.49,81,100,1.48,CA,1970-01-01
515,sinazongwe,-17.2614,27.4618,27.35,55,100,5.29,ZM,1970-01-01
516,yamba,-5.9,22.3,22.21,89,65,0.58,CD,1970-01-01
517,gurupi,-11.7292,-49.0686,28.31,40,14,1.61,BR,1970-01-01
518,cill airne,52.05,-9.5167,7.87,95,79,1.74,IE,1970-01-01
519,novo aripuana,-5.1206,-60.3797,29.3,44,51,0.71,BR,1970-01-01
520,east ballina,-28.8667,153.5833,28.22,58,0,6.39,AU,1970-01-01
521,carutapera,-1.195,-46.02,26.11,78,42,3.57,BR,1970-01-01
522,magdagachi,53.45,125.8,-1.4,46,14,5.52,RU,1970-01-01
523,tres coracoes,-21.6969,-45.2533,20.71,91,100,0.65,BR,1970-01-01
524,karasburg,-28.0167,18.75,10.54,27,0,6.94,NA,1970-01-01
525,vanimo,-2.6741,141.3028,25.13,93,100,2.82,PG,1970-01-01
526,novomyrhorod,48.7811,31.642,11.29,66,100,5.09,UA,1970-01-01
527,diamantino,-14.4086,-56.4461,24.65,76,63,2.22,BR,1970-01-01
528,kirensk,57.7853,108.1119,-3.91,51,99,3.58,RU,1970-01-01
529,anna regina,7.2644,-58.5077,28.15,78,56,4.57,GY,1970-01-01
530,natal,-5.795,-35.2094,23.36,88,40,1.54,BR,1970-01-01
531,rosa zarate,0.3333,-79.4667,24.14,93,100,1.04,EC,1970-01-01
532,rohru,31.2167,77.75,15.24,39,25,0.45,IN,1970-01-01
533,nushki,29.5542,66.0215,22.03,27,91,1.24,PK,1970-01-01
534,kavieng,-2.5744,150.7967,24.72,93,100,4.87,PG,1970-01-01
535,bulayevo,54.9056,70.4439,-2.47,96,100,7.58,KZ,1970-01-01
536,rondonopolis,-16.4708,-54.6356,27.28,66,80,0.77,BR,1970-01-01
537,neon karlovasion,37.7903,26.7044,21.62,84,99,2.58,GR,1970-01-01
538,humahuaca,-23.2054,-65.3505,13.59,22,89,3.03,AR,1970-01-01
539,axim,4.8699,-2.2405,25.56,87,55,1.0,GH,1970-01-01
540,kegeyli shahar,42.7767,59.6078,12.05,58,83,3.5,UZ,1970-01-01
541,peace river,56.2501,-117.286,-5.57,91,100,1.34,CA,1970-01-01
542,swakopmund,-22.6833,14.5333,14.0,85,1,1.85,NA,1970-01-01
543,santa luzia,-19.7697,-43.8514,22.1,93,95,1.41,BR,1970-01-01
544,san sebastian de la gomera,28.0916,-17.1133,22.2,83,0,2.57,ES,1970-01-01
545,mgandu,-5.95,34.1333,18.35,66,50,3.02,TZ,1970-01-01
546,mil'kovo,55.6078,37.7956,-0.27,95,100,1.97,RU,1970-01-01
547,livramento do brumado,-13.6431,-41.8406,23.85,48,11,1.91,BR,1970-01-01
548,orchha,25.35,78.65,24.94,37,66,2.03,IN,1970-01-01
549,namibe,-15.1961,12.1522,19.12,86,5,2.35,AO,1970-01-01
550,itaituba,-4.2761,-55.9836,28.73,53,39,0.88,BR,1970-01-01
551,kongoussi,13.3258,-1.5347,26.9,27,0,0.43,BF,1970-01-01
552,uliastay,47.7417,96.8444,2.29,79,98,1.62,MN,1970-01-01
553,izki,22.9333,57.7667,22.66,73,43,0.18,OM,1970-01-01
554,ha'il,27.5219,41.6907,17.01,82,40,2.06,SA,1970-01-01
555,balikpapan,-1.2675,116.8289,30.55,70,40,1.54,ID,1970-01-01
556,rincon,32.296,-81.2354,21.59,88,0,0.0,US,1970-01-01
557,sangmelima,2.9333,11.9833,20.07,97,100,0.26,CM,1970-01-01
558,shingu,33.7333,135.9833,19.6,51,0,2.19,JP,1970-01-01
559,undurkhaan,47.3194,110.6556,2.54,36,100,3.27,MN,1970-01-01
560,cruzeiro do sul,-29.5128,-51.9853,23.07,89,60,0.8,BR,1970-01-01
561,nizhniy odes,63.6445,54.856,-6.97,81,100,4.19,RU,1970-01-01
562,kathmandu,27.7167,85.3167,17.69,72,20,0.45,NP,1970-01-01
563,pisco,-13.7,-76.2167,20.03,77,61,4.63,PE,1970-01-01
564,peniche,39.3558,-9.3811,16.73,71,64,8.41,PT,1970-01-01
565,temiskaming shores,47.4938,-79.7153,-1.11,99,100,0.31,CA,1970-01-01
566,ihosy,-22.4,46.1167,19.73,72,0,1.34,MG,1970-01-01
567,bamboo flat,11.7,92.7167,29.05,79,40,2.57,IN,1970-01-01
568,balabac,7.9868,117.0645,30.16,69,98,5.28,PH,1970-01-01
569,panama city beach,30.1766,-85.8055,20.61,95,0,0.88,US,1970-01-01
570,kievka,50.2619,71.5514,10.29,81,73,8.52,KZ,1970-01-01
571,farshut,26.0549,32.1633,23.79,45,0,1.93,EG,1970-01-01
572,linqiong,30.4159,103.4609,19.87,72,97,1.53,CN,1970-01-01
573,anta,25.15,76.3,25.46,38,44,2.27,IN,1970-01-01
574,vilyuysk,63.7553,121.6247,-11.67,92,92,2.24,RU,1970-01-01
575,talitsy,56.5289,42.3344,-2.68,93,94,2.0,RU,1970-01-01
576,fukuecho,32.6881,128.8419,19.04,55,0,4.86,JP,1970-01-01
577,vanino,49.0869,140.2543,7.18,41,39,1.86,RU,1970-01-01
578,sonqor,34.7837,47.6004,9.75,42,100,0.74,IR,1970-01-01
579,argostolion,38.1811,20.489,18.19,65,0,2.05,GR,1970-01-01
580,demre,36.2537,29.9777,19.41,70,95,1.33,TR,1970-01-01
581,lerwick,60.1545,-1.1494,8.0,64,11,13.12,GB,1970-01-01
582,la ferte-saint-aubin,47.7169,1.939,11.84,97,100,3.26,FR,1970-01-01
583,smithers,54.7804,-127.1743,-0.2,87,100,0.47,CA,1970-01-01
584,liepaja,56.5419,21.0367,9.99,93,20,3.09,LV,1970-01-01
585,junagarh,19.8667,82.9333,22.82,63,0,0.64,IN,1970-01-01
586,kovdor,67.5662,30.4758,-10.31,97,100,1.21,RU,1970-01-01
587,saint-francois,46.4154,3.9054,12.03,100,100,1.54,FR,1970-01-01
588,paramonga,-10.6667,-77.8333,19.15,89,97,3.1,PE,1970-01-01
589,shenjiamen,29.9576,122.298,22.26,60,11,3.61,CN,1970-01-01
